[
    {
        "name": "Ben Nevis",
        "Elevation": 1345,
        "lat": 56.7968582,
        "lon": -5.003526,
        "reference": "GM/WS-001",
        "points": "10"
    },
    {
        "name": "C\u00e0rn M\u00f2r Dearg",
        "Elevation": 1220,
        "lat": 56.8052539,
        "lon": -4.9866573,
        "reference": "GM/WS-003",
        "points": "10"
    },
    {
        "name": "Ben More",
        "Elevation": 1174,
        "lat": 56.3860093,
        "lon": -4.5400634,
        "reference": "GM/SS-001",
        "points": "10"
    },
    {
        "name": "Stob Dearg",
        "Elevation": 1021,
        "lat": 56.6468537,
        "lon": -4.8987627,
        "reference": "GM/WS-044",
        "points": "8"
    },
    {
        "name": "Ben Lomond",
        "Elevation": 974,
        "lat": 56.1903623,
        "lon": -4.6332874,
        "reference": "GM/SS-011",
        "points": "6"
    },
    {
        "name": "Sgor nam Fiannaidh",
        "Elevation": 967,
        "lat": 56.6793935,
        "lon": -5.0371437,
        "reference": "GM/WS-074",
        "points": "6"
    },
    {
        "name": "Ben Lui",
        "Elevation": 1130,
        "lat": 56.3969764,
        "lon": -4.810569,
        "reference": "GM/SS-003",
        "points": "10"
    },
    {
        "name": "Ben Chonzie",
        "Elevation": 931,
        "lat": 56.4538846,
        "lon": -3.9920844,
        "reference": "GM/SS-015",
        "points": "6"
    },
    {
        "name": "Braeriach",
        "Elevation": 1296,
        "lat": 57.0781682,
        "lon": -3.7288293,
        "reference": "GM/ES-002",
        "points": "10"
    },
    {
        "name": "Ben Macdui",
        "Elevation": 1309,
        "lat": 57.0703889,
        "lon": -3.6691251,
        "reference": "GM/ES-001",
        "points": "10"
    },
    {
        "name": "Cairn Toul",
        "Elevation": 1291,
        "lat": 57.054388,
        "lon": -3.7107019,
        "reference": "GM/ES-003",
        "points": "10"
    },
    {
        "name": "Aonach Beag",
        "Elevation": 1234,
        "lat": 56.7999773,
        "lon": -4.9541724,
        "reference": "GM/WS-002",
        "points": "10"
    },
    {
        "name": "Ben Lawers",
        "Elevation": 1214,
        "lat": 56.5449045,
        "lon": -4.2208744,
        "reference": "GM/CS-001",
        "points": "10"
    },
    {
        "name": "Beinn Eunaich",
        "Elevation": 989,
        "lat": 56.4501173,
        "lon": -5.0264833,
        "reference": "GM/WS-065",
        "points": "6"
    },
    {
        "name": "Beinn Dorain",
        "Elevation": 1076,
        "lat": 56.5028441,
        "lon": -4.7221593,
        "reference": "GM/CS-008",
        "points": "8"
    },
    {
        "name": "Beinn an Dothaidh",
        "Elevation": 1004,
        "lat": 56.5301376,
        "lon": -4.7139896,
        "reference": "GM/CS-025",
        "points": "8"
    },
    {
        "name": "St\u00f9c a' Chroin",
        "Elevation": 975,
        "lat": 56.3292563,
        "lon": -4.2375474,
        "reference": "GM/SS-010",
        "points": "6"
    },
    {
        "name": "Stob B\u00e0n",
        "Elevation": 999,
        "lat": 56.7440062,
        "lon": -5.0305154,
        "reference": "GM/WS-058",
        "points": "6"
    },
    {
        "name": "Am Bodach",
        "Elevation": 1032,
        "lat": 56.7417441,
        "lon": -4.9833493,
        "reference": "GM/WS-037",
        "points": "8"
    },
    {
        "name": "An Gearanach",
        "Elevation": 982,
        "lat": 56.7592172,
        "lon": -4.9662721,
        "reference": "GM/WS-069",
        "points": "6"
    },
    {
        "name": "Binnein Mor",
        "Elevation": 1130,
        "lat": 56.7544245,
        "lon": -4.9258171,
        "reference": "GM/WS-011",
        "points": "10"
    },
    {
        "name": "Sg\u00f9rr Eilde M\u00f2r",
        "Elevation": 1010,
        "lat": 56.7499706,
        "lon": -4.8954275,
        "reference": "GM/WS-049",
        "points": "8"
    },
    {
        "name": "Gulvain",
        "Elevation": 987,
        "lat": 56.9362239,
        "lon": -5.2845447,
        "reference": "GM/WS-066",
        "points": "6"
    },
    {
        "name": "Sg\u00f9rr Thuilm",
        "Elevation": 963,
        "lat": 56.9370302,
        "lon": -5.3891781,
        "reference": "GM/WS-075",
        "points": "6"
    },
    {
        "name": "Sg\u00f9rr nan Coireachan",
        "Elevation": 955,
        "lat": 56.9357219,
        "lon": -5.4485532,
        "reference": "GM/WS-080",
        "points": "6"
    },
    {
        "name": "Stob Coire Easain",
        "Elevation": 1115,
        "lat": 56.8181909,
        "lon": -4.773727,
        "reference": "GM/WS-015",
        "points": "10"
    },
    {
        "name": "Stob Choire Claurigh",
        "Elevation": 1177,
        "lat": 56.8237914,
        "lon": -4.8498558,
        "reference": "GM/WS-005",
        "points": "10"
    },
    {
        "name": "Stob B\u00e0n",
        "Elevation": 977,
        "lat": 56.8106697,
        "lon": -4.8409103,
        "reference": "GM/WS-072",
        "points": "6"
    },
    {
        "name": "Sg\u00f9rr Choinnich M\u00f2r",
        "Elevation": 1094,
        "lat": 56.8004299,
        "lon": -4.9040088,
        "reference": "GM/WS-021",
        "points": "8"
    },
    {
        "name": "Stob Dubh",
        "Elevation": 958,
        "lat": 56.638341,
        "lon": -4.9706851,
        "reference": "GM/WS-079",
        "points": "6"
    },
    {
        "name": "Stob Coire Raineach",
        "Elevation": 925,
        "lat": 56.6499286,
        "lon": -4.951608,
        "reference": "GM/WS-096",
        "points": "6"
    },
    {
        "name": "Sgorr Dhonuill",
        "Elevation": 1001,
        "lat": 56.650488,
        "lon": -5.197998,
        "reference": "GM/WS-057",
        "points": "8"
    },
    {
        "name": "Sgorr Dhearg",
        "Elevation": 1024,
        "lat": 56.6539309,
        "lon": -5.1715514,
        "reference": "GM/WS-042",
        "points": "8"
    },
    {
        "name": "Beinn Fhionnlaidh",
        "Elevation": 959,
        "lat": 56.6010358,
        "lon": -5.1048871,
        "reference": "GM/WS-078",
        "points": "6"
    },
    {
        "name": "Sg\u00f9rr na h-Ulaidh",
        "Elevation": 994,
        "lat": 56.6197971,
        "lon": -5.080066,
        "reference": "GM/WS-061",
        "points": "6"
    },
    {
        "name": "Beinn Sgulaird",
        "Elevation": 937,
        "lat": 56.566369,
        "lon": -5.1707061,
        "reference": "GM/WS-090",
        "points": "6"
    },
    {
        "name": "Chno Dearg",
        "Elevation": 1046,
        "lat": 56.830081,
        "lon": -4.6608752,
        "reference": "GM/WS-032",
        "points": "8"
    },
    {
        "name": "Geal-Ch\u00e0rn",
        "Elevation": 1132,
        "lat": 56.8378511,
        "lon": -4.5097197,
        "reference": "GM/WS-010",
        "points": "10"
    },
    {
        "name": "Carn Dearg",
        "Elevation": 1034,
        "lat": 56.8552108,
        "lon": -4.4547533,
        "reference": "GM/WS-038",
        "points": "8"
    },
    {
        "name": "Beinn a' Chlachair",
        "Elevation": 1087,
        "lat": 56.8695346,
        "lon": -4.5096351,
        "reference": "GM/WS-023",
        "points": "8"
    },
    {
        "name": "Geal Ch\u00e0rn",
        "Elevation": 1049,
        "lat": 56.8977787,
        "lon": -4.4571979,
        "reference": "GM/WS-031",
        "points": "8"
    },
    {
        "name": "Ben Alder",
        "Elevation": 1148,
        "lat": 56.8138162,
        "lon": -4.4650482,
        "reference": "GM/WS-009",
        "points": "10"
    },
    {
        "name": "Beinn Bheoil",
        "Elevation": 1019,
        "lat": 56.8132828,
        "lon": -4.4306878,
        "reference": "GM/WS-047",
        "points": "8"
    },
    {
        "name": "Beinn Teallach",
        "Elevation": 914,
        "lat": 56.935966,
        "lon": -4.6947333,
        "reference": "GM/CS-044",
        "points": "6"
    },
    {
        "name": "Beinn a' Chaorainn",
        "Elevation": 1052,
        "lat": 56.9286189,
        "lon": -4.6536391,
        "reference": "GM/CS-012",
        "points": "8"
    },
    {
        "name": "Ladhar Bheinn",
        "Elevation": 1020,
        "lat": 57.0752795,
        "lon": -5.591693,
        "reference": "GM/WS-046",
        "points": "8"
    },
    {
        "name": "Meall Buidhe",
        "Elevation": 946,
        "lat": 57.0315778,
        "lon": -5.5463111,
        "reference": "GM/WS-084",
        "points": "6"
    },
    {
        "name": "Luinne Bheinn",
        "Elevation": 939,
        "lat": 57.0490584,
        "lon": -5.5158336,
        "reference": "GM/WS-089",
        "points": "6"
    },
    {
        "name": "Sg\u00f9rr na C\u00ecche",
        "Elevation": 1040,
        "lat": 57.0134604,
        "lon": -5.4569144,
        "reference": "GM/WS-034",
        "points": "8"
    },
    {
        "name": "Garbh Ch\u00ecoch Mh\u00f2r",
        "Elevation": 1013,
        "lat": 57.0086057,
        "lon": -5.4452584,
        "reference": "GM/WS-048",
        "points": "8"
    },
    {
        "name": "Sg\u00f9rr nan Coireachan",
        "Elevation": 953,
        "lat": 57.0071498,
        "lon": -5.4047002,
        "reference": "GM/WS-082",
        "points": "6"
    },
    {
        "name": "Sr\u00f2n a' Choire Ghairbh",
        "Elevation": 937,
        "lat": 57.0078532,
        "lon": -4.9287093,
        "reference": "GM/WS-092",
        "points": "6"
    },
    {
        "name": "Meall na Teanga",
        "Elevation": 918,
        "lat": 56.9885015,
        "lon": -4.9309213,
        "reference": "GM/WS-102",
        "points": "6"
    },
    {
        "name": "Aonach air Chrith",
        "Elevation": 1021,
        "lat": 57.124582,
        "lon": -5.221207,
        "reference": "GM/WS-045",
        "points": "8"
    },
    {
        "name": "Creag nan Damh",
        "Elevation": 918,
        "lat": 57.1472943,
        "lon": -5.3350112,
        "reference": "GM/WS-100",
        "points": "6"
    },
    {
        "name": "Sg\u00f9rr na Sgine",
        "Elevation": 946,
        "lat": 57.1471139,
        "lon": -5.3966556,
        "reference": "GM/WS-085",
        "points": "6"
    },
    {
        "name": "The Saddle",
        "Elevation": 1010,
        "lat": 57.1618833,
        "lon": -5.4168361,
        "reference": "GM/WS-051",
        "points": "8"
    },
    {
        "name": "Sg\u00f9rr na Ciste Duibhe",
        "Elevation": 1027,
        "lat": 57.1808993,
        "lon": -5.3369692,
        "reference": "GM/WS-041",
        "points": "8"
    },
    {
        "name": "Sg\u00f9rr Fhuaran",
        "Elevation": 1067,
        "lat": 57.1961624,
        "lon": -5.3477879,
        "reference": "GM/WS-027",
        "points": "8"
    },
    {
        "name": "Sg\u00f9rr a' Bhealaich Dheirg",
        "Elevation": 1036,
        "lat": 57.1777734,
        "lon": -5.2521731,
        "reference": "GM/WS-035",
        "points": "8"
    },
    {
        "name": "Aonach Meadhoin",
        "Elevation": 1001,
        "lat": 57.1730626,
        "lon": -5.2291914,
        "reference": "GM/WS-056",
        "points": "8"
    },
    {
        "name": "Ciste Dhubh",
        "Elevation": 979,
        "lat": 57.1993049,
        "lon": -5.2089319,
        "reference": "GM/WS-070",
        "points": "6"
    },
    {
        "name": "A' Chr\u00e0ileag",
        "Elevation": 1120,
        "lat": 57.1842451,
        "lon": -5.1548481,
        "reference": "GM/WS-014",
        "points": "10"
    },
    {
        "name": "Mullach Fraoch-choire",
        "Elevation": 1102,
        "lat": 57.205415,
        "lon": -5.1556206,
        "reference": "GM/WS-018",
        "points": "10"
    },
    {
        "name": "Sgurr nan Conbhairean",
        "Elevation": 1109,
        "lat": 57.1776545,
        "lon": -5.0955332,
        "reference": "GM/WS-016",
        "points": "10"
    },
    {
        "name": "Spidean Mialach",
        "Elevation": 996,
        "lat": 57.0889535,
        "lon": -5.1935807,
        "reference": "GM/WS-060",
        "points": "6"
    },
    {
        "name": "Gleouraich",
        "Elevation": 1035,
        "lat": 57.0971453,
        "lon": -5.2380576,
        "reference": "GM/WS-036",
        "points": "8"
    },
    {
        "name": "Beinn Narnain",
        "Elevation": 926,
        "lat": 56.2214527,
        "lon": -4.7893997,
        "reference": "GM/SS-016",
        "points": "6"
    },
    {
        "name": "Ben Vane",
        "Elevation": 916,
        "lat": 56.249598,
        "lon": -4.7817629,
        "reference": "GM/SS-017",
        "points": "6"
    },
    {
        "name": "Ben Vorlich",
        "Elevation": 943,
        "lat": 56.2740128,
        "lon": -4.7550724,
        "reference": "GM/SS-013",
        "points": "6"
    },
    {
        "name": "Beinn Chabhair",
        "Elevation": 933,
        "lat": 56.3257917,
        "lon": -4.6414315,
        "reference": "GM/SS-014",
        "points": "6"
    },
    {
        "name": "An Caisteal",
        "Elevation": 995,
        "lat": 56.338553,
        "lon": -4.624489,
        "reference": "GM/SS-007",
        "points": "6"
    },
    {
        "name": "Cruach Ardrain",
        "Elevation": 1046,
        "lat": 56.356454,
        "lon": -4.5761975,
        "reference": "GM/SS-004",
        "points": "8"
    },
    {
        "name": "Meall nan Tarmachan",
        "Elevation": 1044,
        "lat": 56.5216505,
        "lon": -4.3014118,
        "reference": "GM/CS-015",
        "points": "8"
    },
    {
        "name": "Meall a' Choire Leith",
        "Elevation": 926,
        "lat": 56.5665404,
        "lon": -4.2598302,
        "reference": "GM/CS-041",
        "points": "6"
    },
    {
        "name": "Meall Corranaich",
        "Elevation": 1069,
        "lat": 56.540809,
        "lon": -4.2534382,
        "reference": "GM/CS-010",
        "points": "8"
    },
    {
        "name": "Meall Garbh",
        "Elevation": 1118,
        "lat": 56.5662633,
        "lon": -4.20755,
        "reference": "GM/CS-004",
        "points": "10"
    },
    {
        "name": "Meall Greigh",
        "Elevation": 1001,
        "lat": 56.5674169,
        "lon": -4.1600857,
        "reference": "GM/CS-026",
        "points": "8"
    },
    {
        "name": "Sgiath Ch\u00f9il",
        "Elevation": 921,
        "lat": 56.4529169,
        "lon": -4.4952835,
        "reference": "GM/CS-042",
        "points": "6"
    },
    {
        "name": "Meall Glas",
        "Elevation": 959,
        "lat": 56.4558528,
        "lon": -4.5466103,
        "reference": "GM/CS-033",
        "points": "6"
    },
    {
        "name": "Creag Mh\u00f2r",
        "Elevation": 1032,
        "lat": 56.4893747,
        "lon": -4.6146576,
        "reference": "GM/CS-013",
        "points": "8"
    },
    {
        "name": "Beinn Chaluim",
        "Elevation": 1025,
        "lat": 56.4546681,
        "lon": -4.6192551,
        "reference": "GM/CS-021",
        "points": "8"
    },
    {
        "name": "Beinn Heasgarnich",
        "Elevation": 1078,
        "lat": 56.5102745,
        "lon": -4.57928,
        "reference": "GM/CS-007",
        "points": "8"
    },
    {
        "name": "Beinn a' Chreachain",
        "Elevation": 1081,
        "lat": 56.5603771,
        "lon": -4.6476241,
        "reference": "GM/CS-006",
        "points": "8"
    },
    {
        "name": "Beinn Mhanach",
        "Elevation": 953,
        "lat": 56.5340284,
        "lon": -4.6460457,
        "reference": "GM/CS-034",
        "points": "6"
    },
    {
        "name": "Beinn Achaladair",
        "Elevation": 1038,
        "lat": 56.5516591,
        "lon": -4.6951314,
        "reference": "GM/CS-018",
        "points": "8"
    },
    {
        "name": "Ben Cruachan",
        "Elevation": 1126,
        "lat": 56.4267792,
        "lon": -5.1318182,
        "reference": "GM/WS-013",
        "points": "10"
    },
    {
        "name": "Stob Binnein",
        "Elevation": 1165,
        "lat": 56.3707765,
        "lon": -4.5356275,
        "reference": "GM/SS-002",
        "points": "10"
    },
    {
        "name": "Meall a' Bh\u00f9iridh",
        "Elevation": 1108,
        "lat": 56.6122677,
        "lon": -4.8521185,
        "reference": "GM/WS-017",
        "points": "10"
    },
    {
        "name": "Creise",
        "Elevation": 1100,
        "lat": 56.6145149,
        "lon": -4.8719012,
        "reference": "GM/WS-019",
        "points": "8"
    },
    {
        "name": "Stob a' Choire Odhair",
        "Elevation": 945,
        "lat": 56.5732856,
        "lon": -4.8382091,
        "reference": "GM/WS-083",
        "points": "6"
    },
    {
        "name": "Stob Ghabhar",
        "Elevation": 1090,
        "lat": 56.5681385,
        "lon": -4.8821085,
        "reference": "GM/WS-022",
        "points": "8"
    },
    {
        "name": "Meall nan Eun",
        "Elevation": 928,
        "lat": 56.5611515,
        "lon": -4.942957,
        "reference": "GM/WS-094",
        "points": "6"
    },
    {
        "name": "Stob Coir'an Albannaich",
        "Elevation": 1044,
        "lat": 56.5548754,
        "lon": -4.9798427,
        "reference": "GM/WS-033",
        "points": "8"
    },
    {
        "name": "Glas Bheinn Mh\u00f2r",
        "Elevation": 997,
        "lat": 56.542419,
        "lon": -5.0053123,
        "reference": "GM/WS-059",
        "points": "6"
    },
    {
        "name": "Beinn nan Aighenan",
        "Elevation": 960,
        "lat": 56.520166,
        "lon": -5.0111417,
        "reference": "GM/WS-076",
        "points": "6"
    },
    {
        "name": "Sg\u00f9rr a' Mhaoraich",
        "Elevation": 1027,
        "lat": 57.10558,
        "lon": -5.3303647,
        "reference": "GM/WS-040",
        "points": "8"
    },
    {
        "name": "Gairich",
        "Elevation": 919,
        "lat": 57.0448657,
        "lon": -5.2558304,
        "reference": "GM/WS-099",
        "points": "6"
    },
    {
        "name": "Bidein a' Ghlas Thuill",
        "Elevation": 1062,
        "lat": 57.8071584,
        "lon": -5.2517207,
        "reference": "GM/NS-004",
        "points": "8"
    },
    {
        "name": "Sg\u00f9rr B\u00e0n",
        "Elevation": 989,
        "lat": 57.7185382,
        "lon": -5.2659286,
        "reference": "GM/NS-010",
        "points": "6"
    },
    {
        "name": "Beinn Tarsuinn",
        "Elevation": 937,
        "lat": 57.7019723,
        "lon": -5.2916583,
        "reference": "GM/NS-016",
        "points": "6"
    },
    {
        "name": "Ruadh-stac M\u00f2r",
        "Elevation": 918,
        "lat": 57.726839,
        "lon": -5.3293051,
        "reference": "GM/NS-021",
        "points": "6"
    },
    {
        "name": "A' Mhaighdean",
        "Elevation": 967,
        "lat": 57.7196694,
        "lon": -5.346769,
        "reference": "GM/NS-013",
        "points": "6"
    },
    {
        "name": "Ben Hope",
        "Elevation": 927,
        "lat": 58.4131317,
        "lon": -4.6079325,
        "reference": "GM/NS-020",
        "points": "6"
    },
    {
        "name": "Ben Klibreck",
        "Elevation": 962,
        "lat": 58.2351515,
        "lon": -4.4112041,
        "reference": "GM/NS-014",
        "points": "6"
    },
    {
        "name": "Ben More Assynt",
        "Elevation": 998,
        "lat": 58.1381075,
        "lon": -4.8582516,
        "reference": "GM/NS-009",
        "points": "6"
    },
    {
        "name": "Eididh nan Clach Geala",
        "Elevation": 927,
        "lat": 57.81452,
        "lon": -4.9354762,
        "reference": "GM/NS-018",
        "points": "6"
    },
    {
        "name": "Beinn Dearg",
        "Elevation": 1084,
        "lat": 57.786389,
        "lon": -4.9297686,
        "reference": "GM/NS-003",
        "points": "8"
    },
    {
        "name": "Seana Bhr\u00e0igh",
        "Elevation": 927,
        "lat": 57.8473966,
        "lon": -4.8967898,
        "reference": "GM/NS-019",
        "points": "6"
    },
    {
        "name": "Cona' Mheall",
        "Elevation": 978,
        "lat": 57.7911105,
        "lon": -4.903421,
        "reference": "GM/NS-012",
        "points": "6"
    },
    {
        "name": "Am Faochagach",
        "Elevation": 953,
        "lat": 57.7717981,
        "lon": -4.8538839,
        "reference": "GM/NS-015",
        "points": "6"
    },
    {
        "name": "Mullach Coire Mhic Fhearchair",
        "Elevation": 1018,
        "lat": 57.7090252,
        "lon": -5.271305,
        "reference": "GM/NS-006",
        "points": "8"
    },
    {
        "name": "Slioch",
        "Elevation": 981,
        "lat": 57.6670397,
        "lon": -5.3472667,
        "reference": "GM/NS-011",
        "points": "6"
    },
    {
        "name": "Ruadh-stac M\u00f2r",
        "Elevation": 1010,
        "lat": 57.5937429,
        "lon": -5.4294363,
        "reference": "GM/WS-052",
        "points": "8"
    },
    {
        "name": "Spidean Coire nan Clach",
        "Elevation": 993,
        "lat": 57.58216,
        "lon": -5.4036409,
        "reference": "GM/WS-063",
        "points": "6"
    },
    {
        "name": "Fionn Bheinn",
        "Elevation": 933,
        "lat": 57.611135,
        "lon": -5.1027016,
        "reference": "GM/NS-017",
        "points": "6"
    },
    {
        "name": "Sg\u00f9rr M\u00f2r",
        "Elevation": 986,
        "lat": 57.5908139,
        "lon": -5.5728028,
        "reference": "GM/WS-068",
        "points": "6"
    },
    {
        "name": "Tom na Gruagaich",
        "Elevation": 922,
        "lat": 57.580525,
        "lon": -5.5819472,
        "reference": "GM/WS-098",
        "points": "6"
    },
    {
        "name": "Sgorr Ruadh",
        "Elevation": 962,
        "lat": 57.4986653,
        "lon": -5.4078179,
        "reference": "GM/WS-077",
        "points": "6"
    },
    {
        "name": "Beinn Liath Mh\u00f2r",
        "Elevation": 926,
        "lat": 57.5120656,
        "lon": -5.4006515,
        "reference": "GM/WS-097",
        "points": "6"
    },
    {
        "name": "Maol Chean-dearg",
        "Elevation": 933,
        "lat": 57.4918824,
        "lon": -5.4655696,
        "reference": "GM/WS-093",
        "points": "6"
    },
    {
        "name": "Sg\u00f9rr M\u00f2r",
        "Elevation": 1110,
        "lat": 57.7001002,
        "lon": -5.0168076,
        "reference": "GM/NS-001",
        "points": "10"
    },
    {
        "name": "Sg\u00f9rr nan Clach Geala",
        "Elevation": 1093,
        "lat": 57.6963241,
        "lon": -5.0482628,
        "reference": "GM/NS-002",
        "points": "8"
    },
    {
        "name": "Sg\u00f9rr Breac",
        "Elevation": 999,
        "lat": 57.692119,
        "lon": -5.091612,
        "reference": "GM/NS-007",
        "points": "6"
    },
    {
        "name": "A' Chailleach",
        "Elevation": 997,
        "lat": 57.6938037,
        "lon": -5.1286657,
        "reference": "GM/NS-008",
        "points": "6"
    },
    {
        "name": "Ben Wyvis - Glas Leathad M\u00f2r",
        "Elevation": 1046,
        "lat": 57.678984,
        "lon": -4.5792334,
        "reference": "GM/NS-005",
        "points": "8"
    },
    {
        "name": "M\u00f2ruisg",
        "Elevation": 928,
        "lat": 57.499707,
        "lon": -5.1706291,
        "reference": "GM/WS-095",
        "points": "6"
    },
    {
        "name": "Sgurr a' Chaorachain",
        "Elevation": 1053,
        "lat": 57.4525536,
        "lon": -5.189321,
        "reference": "GM/WS-030",
        "points": "8"
    },
    {
        "name": "Lurg Mhor",
        "Elevation": 986,
        "lat": 57.4130905,
        "lon": -5.2236546,
        "reference": "GM/WS-067",
        "points": "6"
    },
    {
        "name": "Bidein a' Choire Sheasgaich",
        "Elevation": 945,
        "lat": 57.4198091,
        "lon": -5.2503147,
        "reference": "GM/WS-086",
        "points": "6"
    },
    {
        "name": "Sg\u00f9rr a' Choire Ghlais",
        "Elevation": 1083,
        "lat": 57.4435136,
        "lon": -4.9026573,
        "reference": "GM/WS-024",
        "points": "8"
    },
    {
        "name": "C\u00e0rn nan Gobhar",
        "Elevation": 992,
        "lat": 57.363321,
        "lon": -5.0244447,
        "reference": "GM/WS-064",
        "points": "6"
    },
    {
        "name": "An Riabhachan",
        "Elevation": 1129,
        "lat": 57.362434,
        "lon": -5.1047124,
        "reference": "GM/WS-012",
        "points": "10"
    },
    {
        "name": "An Socach",
        "Elevation": 1069,
        "lat": 57.3502275,
        "lon": -5.1586027,
        "reference": "GM/WS-026",
        "points": "8"
    },
    {
        "name": "Toll Creagach",
        "Elevation": 1054,
        "lat": 57.3091597,
        "lon": -4.9996048,
        "reference": "GM/WS-029",
        "points": "8"
    },
    {
        "name": "Beinn Fhionnlaidh",
        "Elevation": 1005,
        "lat": 57.3060187,
        "lon": -5.1299537,
        "reference": "GM/WS-054",
        "points": "8"
    },
    {
        "name": "C\u00e0rn Eige",
        "Elevation": 1183,
        "lat": 57.2877134,
        "lon": -5.1151552,
        "reference": "GM/WS-004",
        "points": "10"
    },
    {
        "name": "Sg\u00f9rr nan Ceathreamhnan",
        "Elevation": 1151,
        "lat": 57.2549265,
        "lon": -5.2227914,
        "reference": "GM/WS-006",
        "points": "10"
    },
    {
        "name": "Beinn Sgritheall",
        "Elevation": 974,
        "lat": 57.1537644,
        "lon": -5.5796405,
        "reference": "GM/WS-073",
        "points": "6"
    },
    {
        "name": "Beinn Fhada",
        "Elevation": 1032,
        "lat": 57.2200335,
        "lon": -5.2858298,
        "reference": "GM/WS-039",
        "points": "8"
    },
    {
        "name": "A' Ghlas-bheinn",
        "Elevation": 918,
        "lat": 57.2551949,
        "lon": -5.3039473,
        "reference": "GM/WS-101",
        "points": "6"
    },
    {
        "name": "Sg\u00f9rr M\u00f2r",
        "Elevation": 1003,
        "lat": 57.0283321,
        "lon": -5.3548089,
        "reference": "GM/WS-055",
        "points": "8"
    },
    {
        "name": "Creag M\u00e8agaidh",
        "Elevation": 1128,
        "lat": 56.9520202,
        "lon": -4.6020609,
        "reference": "GM/CS-002",
        "points": "10"
    },
    {
        "name": "C\u00e0rn Dearg",
        "Elevation": 945,
        "lat": 57.0922774,
        "lon": -4.2532734,
        "reference": "GM/CS-037",
        "points": "6"
    },
    {
        "name": "Carn na Caim",
        "Elevation": 941,
        "lat": 56.9117275,
        "lon": -4.1744938,
        "reference": "GM/CS-039",
        "points": "6"
    },
    {
        "name": "Geal-charn",
        "Elevation": 917,
        "lat": 56.8744778,
        "lon": -4.3045125,
        "reference": "GM/CS-043",
        "points": "6"
    },
    {
        "name": "Sgairneach Mh\u00f2r",
        "Elevation": 991,
        "lat": 56.8285485,
        "lon": -4.2976799,
        "reference": "GM/CS-028",
        "points": "6"
    },
    {
        "name": "Beinn Udlamain",
        "Elevation": 1011,
        "lat": 56.8355106,
        "lon": -4.3298994,
        "reference": "GM/CS-022",
        "points": "8"
    },
    {
        "name": "Meall Chuaich",
        "Elevation": 951,
        "lat": 56.9638804,
        "lon": -4.1125561,
        "reference": "GM/CS-035",
        "points": "6"
    },
    {
        "name": "Schiehallion",
        "Elevation": 1083,
        "lat": 56.6669296,
        "lon": -4.1003003,
        "reference": "GM/CS-005",
        "points": "8"
    },
    {
        "name": "C\u00e0rn Mairg",
        "Elevation": 1041,
        "lat": 56.6346219,
        "lon": -4.1457221,
        "reference": "GM/CS-016",
        "points": "8"
    },
    {
        "name": "C\u00e0rn Gorm",
        "Elevation": 1029,
        "lat": 56.6225105,
        "lon": -4.2260469,
        "reference": "GM/CS-019",
        "points": "8"
    },
    {
        "name": "Meall Buidhe",
        "Elevation": 930,
        "lat": 56.6172527,
        "lon": -4.4485826,
        "reference": "GM/CS-040",
        "points": "6"
    },
    {
        "name": "Stuchd an Lochain",
        "Elevation": 960,
        "lat": 56.5709447,
        "lon": -4.4706313,
        "reference": "GM/CS-032",
        "points": "6"
    },
    {
        "name": "Meall Ghaordaidh",
        "Elevation": 1039,
        "lat": 56.5258317,
        "lon": -4.4166752,
        "reference": "GM/CS-017",
        "points": "8"
    },
    {
        "name": "Bidean nam Bian",
        "Elevation": 1150,
        "lat": 56.6427446,
        "lon": -5.0293346,
        "reference": "GM/WS-007",
        "points": "10"
    },
    {
        "name": "Beinn a' Chaorainn",
        "Elevation": 1082,
        "lat": 57.0933285,
        "lon": -3.5775874,
        "reference": "GM/ES-011",
        "points": "8"
    },
    {
        "name": "C\u00e0rn a' Mh\u00e0im",
        "Elevation": 1037,
        "lat": 57.0368749,
        "lon": -3.658387,
        "reference": "GM/ES-013",
        "points": "8"
    },
    {
        "name": "Beinn Mheadhoin",
        "Elevation": 1182,
        "lat": 57.0959339,
        "lon": -3.611476,
        "reference": "GM/ES-005",
        "points": "10"
    },
    {
        "name": "Beinn Dearg",
        "Elevation": 1008,
        "lat": 56.877167,
        "lon": -3.883492,
        "reference": "GM/CS-023",
        "points": "8"
    },
    {
        "name": "Carn Liath",
        "Elevation": 975,
        "lat": 56.8077815,
        "lon": -3.7441007,
        "reference": "GM/CS-029",
        "points": "6"
    },
    {
        "name": "Braigh Coire Chruinn-bhalgain",
        "Elevation": 1070,
        "lat": 56.831175,
        "lon": -3.7297152,
        "reference": "GM/CS-009",
        "points": "8"
    },
    {
        "name": "C\u00e0rn nan Gabhar",
        "Elevation": 1121,
        "lat": 56.8398164,
        "lon": -3.6880561,
        "reference": "GM/CS-003",
        "points": "10"
    },
    {
        "name": "C\u00e0rn a' Chlamain",
        "Elevation": 963,
        "lat": 56.8609677,
        "lon": -3.7795988,
        "reference": "GM/CS-031",
        "points": "6"
    },
    {
        "name": "An Sgarsoch",
        "Elevation": 1006,
        "lat": 56.9319217,
        "lon": -3.7544005,
        "reference": "GM/CS-024",
        "points": "8"
    },
    {
        "name": "C\u00e0rn an R\u00ecgh",
        "Elevation": 1029,
        "lat": 56.8766246,
        "lon": -3.595265,
        "reference": "GM/CS-020",
        "points": "8"
    },
    {
        "name": "Beinn Iutharn Mh\u00f2r",
        "Elevation": 1045,
        "lat": 56.8949697,
        "lon": -3.5682547,
        "reference": "GM/CS-014",
        "points": "8"
    },
    {
        "name": "Glas Tulaichean",
        "Elevation": 1051,
        "lat": 56.865824,
        "lon": -3.5582405,
        "reference": "GM/CS-011",
        "points": "8"
    },
    {
        "name": "C\u00e0rn Bhac",
        "Elevation": 946,
        "lat": 56.9304958,
        "lon": -3.5608388,
        "reference": "GM/CS-036",
        "points": "6"
    },
    {
        "name": "An Socach",
        "Elevation": 944,
        "lat": 56.9020207,
        "lon": -3.5125139,
        "reference": "GM/CS-038",
        "points": "6"
    },
    {
        "name": "C\u00e0rn a' Ghe\u00f2idh",
        "Elevation": 975,
        "lat": 56.8731034,
        "lon": -3.4666941,
        "reference": "GM/CS-030",
        "points": "6"
    },
    {
        "name": "Cac C\u00e0rn Beag",
        "Elevation": 1156,
        "lat": 56.9602412,
        "lon": -3.245265,
        "reference": "GM/ES-008",
        "points": "10"
    },
    {
        "name": "Glas Maol",
        "Elevation": 1068,
        "lat": 56.8730662,
        "lon": -3.3684917,
        "reference": "GM/ES-012",
        "points": "8"
    },
    {
        "name": "Mount Keen",
        "Elevation": 939,
        "lat": 56.9698428,
        "lon": -2.9736153,
        "reference": "GM/ES-014",
        "points": "6"
    },
    {
        "name": "Beinn Bhrotain",
        "Elevation": 1157,
        "lat": 57.0098569,
        "lon": -3.7237921,
        "reference": "GM/ES-007",
        "points": "10"
    },
    {
        "name": "Carn Dearg",
        "Elevation": 941,
        "lat": 56.7599346,
        "lon": -4.5899198,
        "reference": "GM/WS-088",
        "points": "6"
    },
    {
        "name": "Beinn na Lap",
        "Elevation": 935,
        "lat": 56.7893938,
        "lon": -4.6599843,
        "reference": "GM/WS-091",
        "points": "6"
    },
    {
        "name": "Ben Starav",
        "Elevation": 1078,
        "lat": 56.5389171,
        "lon": -5.0498001,
        "reference": "GM/WS-025",
        "points": "8"
    },
    {
        "name": "Bl\u00e0 Bheinn",
        "Elevation": 928,
        "lat": 57.2195711,
        "lon": -6.0931604,
        "reference": "GM/SI-005",
        "points": "6"
    },
    {
        "name": "Ben Oss",
        "Elevation": 1029,
        "lat": 56.3893211,
        "lon": -4.7754019,
        "reference": "GM/SS-005",
        "points": "8"
    },
    {
        "name": "Beinn Dubhchraig",
        "Elevation": 978,
        "lat": 56.3913389,
        "lon": -4.7432864,
        "reference": "GM/SS-009",
        "points": "6"
    },
    {
        "name": "Sgor Gaoith",
        "Elevation": 1118,
        "lat": 57.0685891,
        "lon": -3.8109296,
        "reference": "GM/ES-009",
        "points": "10"
    },
    {
        "name": "Bynack More",
        "Elevation": 1090,
        "lat": 57.1378224,
        "lon": -3.5847763,
        "reference": "GM/ES-010",
        "points": "8"
    },
    {
        "name": "Sg\u00f9rr nan Gillean",
        "Elevation": 964,
        "lat": 57.2482537,
        "lon": -6.1930475,
        "reference": "GM/SI-004",
        "points": "6"
    },
    {
        "name": "The Inaccessible Pinnacle",
        "Elevation": 986,
        "lat": 57.213275,
        "lon": -6.2347013,
        "reference": "GM/SI-002",
        "points": "6"
    },
    {
        "name": "Sg\u00f9rr Alasdair",
        "Elevation": 992,
        "lat": 57.2067026,
        "lon": -6.2237372,
        "reference": "GM/SI-001",
        "points": "6"
    },
    {
        "name": "Sg\u00f2r Gaibhre",
        "Elevation": 955,
        "lat": 56.7725874,
        "lon": -4.5464845,
        "reference": "GM/WS-081",
        "points": "6"
    },
    {
        "name": "Spidean a' Choire Leith",
        "Elevation": 1055,
        "lat": 57.5642151,
        "lon": -5.4636172,
        "reference": "GM/WS-028",
        "points": "8"
    },
    {
        "name": "Mullach an Rathain",
        "Elevation": 1023,
        "lat": 57.5609005,
        "lon": -5.4924941,
        "reference": "GM/WS-043",
        "points": "8"
    },
    {
        "name": "Sg\u00f9rr a' Mh\u00e0im",
        "Elevation": 1099,
        "lat": 56.7559529,
        "lon": -5.0035929,
        "reference": "GM/WS-020",
        "points": "8"
    },
    {
        "name": "Beinn Bhuidhe",
        "Elevation": 948,
        "lat": 56.3266908,
        "lon": -4.9067779,
        "reference": "GM/SS-012",
        "points": "6"
    },
    {
        "name": "C\u00e0rn an Fhidhleir",
        "Elevation": 994,
        "lat": 56.9358843,
        "lon": -3.8017043,
        "reference": "GM/CS-027",
        "points": "6"
    },
    {
        "name": "Sg\u00f9rr an Doire Leathain",
        "Elevation": 1010,
        "lat": 57.1368867,
        "lon": -5.2815316,
        "reference": "GM/WS-050",
        "points": "8"
    },
    {
        "name": "Ben More",
        "Elevation": 966,
        "lat": 56.4248294,
        "lon": -6.01404,
        "reference": "GM/SI-003",
        "points": "6"
    },
    {
        "name": "Leabaidh an Daimh Bhuidhe",
        "Elevation": 1171,
        "lat": 57.0993391,
        "lon": -3.4344285,
        "reference": "GM/ES-006",
        "points": "10"
    },
    {
        "name": "Sgurr na Ruaidhe",
        "Elevation": 993,
        "lat": 57.4415491,
        "lon": -4.8524614,
        "reference": "GM/WS-062",
        "points": "6"
    },
    {
        "name": "Sg\u00f9rr na Lapaich",
        "Elevation": 1150,
        "lat": 57.3692815,
        "lon": -5.0600239,
        "reference": "GM/WS-008",
        "points": "10"
    },
    {
        "name": "Ben Vorlich",
        "Elevation": 985,
        "lat": 56.3426698,
        "lon": -4.2194664,
        "reference": "GM/SS-008",
        "points": "6"
    },
    {
        "name": "Beinn \u00ccme",
        "Elevation": 1011,
        "lat": 56.2368829,
        "lon": -4.8167629,
        "reference": "GM/SS-006",
        "points": "8"
    },
    {
        "name": "Binnein Beag",
        "Elevation": 943,
        "lat": 56.7669772,
        "lon": -4.9110831,
        "reference": "GM/WS-087",
        "points": "6"
    },
    {
        "name": "Beinn a' Bh\u00f9ird North Top",
        "Elevation": 1196,
        "lat": 57.0876067,
        "lon": -3.4994129,
        "reference": "GM/ES-004",
        "points": "10"
    },
    {
        "name": "Beinn a' Chochuill",
        "Elevation": 980,
        "lat": 56.4498628,
        "lon": -5.0694072,
        "reference": "GM/WS-071",
        "points": "6"
    }
]